{
"type": "FeatureCollection",
"name": "detector_dots",
"crs": { "type": "name", "properties": { "name": "urn:ogc:def:crs:OGC:1.3:CRS84" } },
"features": [
{ "type": "Feature", "properties": { "place": "东四", "full_name": "东城东四", "lon": 116.417, "lat": 39.929, "2015_1": 36, "2015_2": 23, "2015_3": 16, "2015_4": 41, "2016_1": 23, "2016_2": 17, "2016_3": 20, "2016_4": 42, "2017_1": 28, "2017_2": 8, "2017_3": 7, "2017_4": 14, "2018_1": 20, "2018_2": 14, "2018_3": 1, "2018_4": 15 }, "geometry": { "type": "Point", "coordinates": [ 116.417, 39.929 ] } },
{ "type": "Feature", "properties": { "place": "天坛", "full_name": "东城天坛", "lon": 116.407, "lat": 39.886, "2015_1": 33, "2015_2": 19, "2015_3": 12, "2015_4": 41, "2016_1": 23, "2016_2": 12, "2016_3": 13, "2016_4": 37, "2017_1": 24, "2017_2": 6, "2017_3": 3, "2017_4": 13, "2018_1": 18, "2018_2": 8, "2018_3": 0, "2018_4": 14 }, "geometry": { "type": "Point", "coordinates": [ 116.407, 39.886 ] } },
{ "type": "Feature", "properties": { "place": "官园", "full_name": "西城官园", "lon": 116.339, "lat": 39.929, "2015_1": 31, "2015_2": 19, "2015_3": 16, "2015_4": 41, "2016_1": 22, "2016_2": 13, "2016_3": 21, "2016_4": 38, "2017_1": 26, "2017_2": 7, "2017_3": 6, "2017_4": 13, "2018_1": 17, "2018_2": 11, "2018_3": 1, "2018_4": 14 }, "geometry": { "type": "Point", "coordinates": [ 116.339, 39.929 ] } },
{ "type": "Feature", "properties": { "place": "万寿西宫", "full_name": "西城万寿西宫", "lon": 116.352, "lat": 39.878, "2015_1": 36, "2015_2": 18, "2015_3": 11, "2015_4": 41, "2016_1": 25, "2016_2": 10, "2016_3": 15, "2016_4": 40, "2017_1": 27, "2017_2": 6, "2017_3": 6, "2017_4": 14, "2018_1": 19, "2018_2": 10, "2018_3": 0, "2018_4": 13 }, "geometry": { "type": "Point", "coordinates": [ 116.352, 39.878 ] } },
{ "type": "Feature", "properties": { "place": "奥体中心", "full_name": "朝阳奥体中心", "lon": 116.397, "lat": 39.982, "2015_1": 35, "2015_2": 21, "2015_3": 15, "2015_4": 40, "2016_1": 24, "2016_2": 11, "2016_3": 15, "2016_4": 36, "2017_1": 25, "2017_2": 5, "2017_3": 4, "2017_4": 13, "2018_1": 17, "2018_2": 12, "2018_3": 0, "2018_4": 12 }, "geometry": { "type": "Point", "coordinates": [ 116.397, 39.982 ] } },
{ "type": "Feature", "properties": { "place": "农展馆", "full_name": "朝阳农展馆", "lon": 116.461, "lat": 39.937, "2015_1": 39, "2015_2": 22, "2015_3": 11, "2015_4": 41, "2016_1": 24, "2016_2": 15, "2016_3": 16, "2016_4": 39, "2017_1": 28, "2017_2": 6, "2017_3": 4, "2017_4": 14, "2018_1": 19, "2018_2": 10, "2018_3": 0, "2018_4": 12 }, "geometry": { "type": "Point", "coordinates": [ 116.461, 39.937 ] } },
{ "type": "Feature", "properties": { "place": "万柳", "full_name": "海淀万柳", "lon": 116.287, "lat": 39.987, "2015_1": 35, "2015_2": 22, "2015_3": 12, "2015_4": 37, "2016_1": 23, "2016_2": 10, "2016_3": 13, "2016_4": 34, "2017_1": 24, "2017_2": 6, "2017_3": 4, "2017_4": 11, "2018_1": 16, "2018_2": 11, "2018_3": 1, "2018_4": 11 }, "geometry": { "type": "Point", "coordinates": [ 116.287, 39.987 ] } },
{ "type": "Feature", "properties": { "place": "北部新区", "full_name": "海淀北部新区", "lon": 116.174, "lat": 40.09, "2015_1": 38, "2015_2": 19, "2015_3": 10, "2015_4": 39, "2016_1": 25, "2016_2": 18, "2016_3": 12, "2016_4": 35, "2017_1": 29, "2017_2": 7, "2017_3": 6, "2017_4": 12, "2018_1": 19, "2018_2": 11, "2018_3": 0, "2018_4": 10 }, "geometry": { "type": "Point", "coordinates": [ 116.174, 40.09 ] } },
{ "type": "Feature", "properties": { "place": "植物园", "full_name": "海淀北京植物园", "lon": 116.207, "lat": 40.002, "2015_1": 32, "2015_2": 18, "2015_3": 9, "2015_4": 29, "2016_1": 19, "2016_2": 10, "2016_3": 10, "2016_4": 28, "2017_1": 24, "2017_2": 6, "2017_3": 7, "2017_4": 8, "2018_1": 0, "2018_2": 0, "2018_3": 0, "2018_4": 0 }, "geometry": { "type": "Point", "coordinates": [ 116.207, 40.002 ] } },
{ "type": "Feature", "properties": { "place": "丰台花园", "full_name": "丰台花园", "lon": 116.279, "lat": 39.863, "2015_1": 41, "2015_2": 25, "2015_3": 9, "2015_4": 41, "2016_1": 26, "2016_2": 15, "2016_3": 14, "2016_4": 43, "2017_1": 28, "2017_2": 8, "2017_3": 8, "2017_4": 14, "2018_1": 20, "2018_2": 14, "2018_3": 1, "2018_4": 16 }, "geometry": { "type": "Point", "coordinates": [ 116.279, 39.863 ] } },
{ "type": "Feature", "properties": { "place": "云岗", "full_name": "丰台云岗", "lon": 116.146, "lat": 39.824, "2015_1": 38, "2015_2": 18, "2015_3": 8, "2015_4": 36, "2016_1": 24, "2016_2": 10, "2016_3": 13, "2016_4": 37, "2017_1": 31, "2017_2": 5, "2017_3": 3, "2017_4": 10, "2018_1": 18, "2018_2": 10, "2018_3": 0, "2018_4": 13 }, "geometry": { "type": "Point", "coordinates": [ 116.146, 39.824 ] } },
{ "type": "Feature", "properties": { "place": "古城", "full_name": "石景山古城", "lon": 116.184, "lat": 39.914, "2015_1": 36, "2015_2": 21, "2015_3": 9, "2015_4": 41, "2016_1": 23, "2016_2": 10, "2016_3": 13, "2016_4": 38, "2017_1": 27, "2017_2": 8, "2017_3": 4, "2017_4": 12, "2018_1": 18, "2018_2": 14, "2018_3": 0, "2018_4": 13 }, "geometry": { "type": "Point", "coordinates": [ 116.184, 39.914 ] } },
{ "type": "Feature", "properties": { "place": "房山", "full_name": "房山良乡", "lon": 116.136, "lat": 39.742, "2015_1": 47, "2015_2": 21, "2015_3": 11, "2015_4": 45, "2016_1": 33, "2016_2": 14, "2016_3": 11, "2016_4": 43, "2017_1": 29, "2017_2": 4, "2017_3": 4, "2017_4": 13, "2018_1": 20, "2018_2": 12, "2018_3": 0, "2018_4": 16 }, "geometry": { "type": "Point", "coordinates": [ 116.136, 39.742 ] } },
{ "type": "Feature", "properties": { "place": "大兴", "full_name": "大兴黄村镇", "lon": 116.404, "lat": 39.718, "2015_1": 47, "2015_2": 18, "2015_3": 12, "2015_4": 44, "2016_1": 32, "2016_2": 16, "2016_3": 15, "2016_4": 47, "2017_1": 31, "2017_2": 7, "2017_3": 4, "2017_4": 10, "2018_1": 21, "2018_2": 7, "2018_3": 1, "2018_4": 18 }, "geometry": { "type": "Point", "coordinates": [ 116.404, 39.718 ] } },
{ "type": "Feature", "properties": { "place": "亦庄", "full_name": "亦庄开发区", "lon": 116.506, "lat": 39.795, "2015_1": 44, "2015_2": 22, "2015_3": 11, "2015_4": 46, "2016_1": 30, "2016_2": 13, "2016_3": 16, "2016_4": 38, "2017_1": 34, "2017_2": 9, "2017_3": 5, "2017_4": 12, "2018_1": 21, "2018_2": 8, "2018_3": 1, "2018_4": 15 }, "geometry": { "type": "Point", "coordinates": [ 116.506, 39.795 ] } },
{ "type": "Feature", "properties": { "place": "通州", "full_name": "通州新城", "lon": 116.663, "lat": 39.886, "2015_1": 48, "2015_2": 19, "2015_3": 11, "2015_4": 42, "2016_1": 27, "2016_2": 11, "2016_3": 16, "2016_4": 39, "2017_1": 33, "2017_2": 10, "2017_3": 5, "2017_4": 15, "2018_1": 20, "2018_2": 10, "2018_3": 1, "2018_4": 18 }, "geometry": { "type": "Point", "coordinates": [ 116.663, 39.886 ] } },
{ "type": "Feature", "properties": { "place": "顺义", "full_name": "顺义新城", "lon": 116.655, "lat": 40.127, "2015_1": 37, "2015_2": 22, "2015_3": 11, "2015_4": 38, "2016_1": 24, "2016_2": 11, "2016_3": 12, "2016_4": 33, "2017_1": 26, "2017_2": 6, "2017_3": 5, "2017_4": 12, "2018_1": 19, "2018_2": 13, "2018_3": 0, "2018_4": 12 }, "geometry": { "type": "Point", "coordinates": [ 116.655, 40.127 ] } },
{ "type": "Feature", "properties": { "place": "昌平", "full_name": "昌平镇", "lon": 116.23, "lat": 40.217, "2015_1": 32, "2015_2": 16, "2015_3": 7, "2015_4": 28, "2016_1": 16, "2016_2": 5, "2016_3": 6, "2016_4": 32, "2017_1": 24, "2017_2": 5, "2017_3": 6, "2017_4": 10, "2018_1": 14, "2018_2": 11, "2018_3": 1, "2018_4": 11 }, "geometry": { "type": "Point", "coordinates": [ 116.23, 40.217 ] } },
{ "type": "Feature", "properties": { "place": "门头沟", "full_name": "门头沟龙泉镇", "lon": 116.106, "lat": 39.937, "2015_1": 33, "2015_2": 15, "2015_3": 4, "2015_4": 30, "2016_1": 17, "2016_2": 6, "2016_3": 7, "2016_4": 31, "2017_1": 28, "2017_2": 8, "2017_3": 3, "2017_4": 9, "2018_1": 17, "2018_2": 11, "2018_3": 0, "2018_4": 11 }, "geometry": { "type": "Point", "coordinates": [ 116.106, 39.937 ] } },
{ "type": "Feature", "properties": { "place": "平谷", "full_name": "平谷镇", "lon": 117.1, "lat": 40.143, "2015_1": 35, "2015_2": 13, "2015_3": 5, "2015_4": 36, "2016_1": 23, "2016_2": 9, "2016_3": 7, "2016_4": 30, "2017_1": 30, "2017_2": 6, "2017_3": 6, "2017_4": 12, "2018_1": 19, "2018_2": 10, "2018_3": 0, "2018_4": 13 }, "geometry": { "type": "Point", "coordinates": [ 117.1, 40.143 ] } },
{ "type": "Feature", "properties": { "place": "怀柔", "full_name": "怀柔镇", "lon": 116.628, "lat": 40.328, "2015_1": 29, "2015_2": 16, "2015_3": 6, "2015_4": 34, "2016_1": 18, "2016_2": 6, "2016_3": 11, "2016_4": 27, "2017_1": 24, "2017_2": 5, "2017_3": 4, "2017_4": 9, "2018_1": 15, "2018_2": 10, "2018_3": 0, "2018_4": 10 }, "geometry": { "type": "Point", "coordinates": [ 116.628, 40.328 ] } },
{ "type": "Feature", "properties": { "place": "密云", "full_name": "密云镇", "lon": 116.832, "lat": 40.37, "2015_1": 33, "2015_2": 13, "2015_3": 4, "2015_4": 33, "2016_1": 18, "2016_2": 11, "2016_3": 7, "2016_4": 27, "2017_1": 22, "2017_2": 6, "2017_3": 4, "2017_4": 10, "2018_1": 15, "2018_2": 12, "2018_3": 0, "2018_4": 11 }, "geometry": { "type": "Point", "coordinates": [ 116.832, 40.37 ] } },
{ "type": "Feature", "properties": { "place": "延庆", "full_name": "延庆镇", "lon": 115.972, "lat": 40.453, "2015_1": 29, "2015_2": 9, "2015_3": 5, "2015_4": 32, "2016_1": 20, "2016_2": 8, "2016_3": 9, "2016_4": 31, "2017_1": 21, "2017_2": 4, "2017_3": 5, "2017_4": 7, "2018_1": 14, "2018_2": 16, "2018_3": 1, "2018_4": 9 }, "geometry": { "type": "Point", "coordinates": [ 115.972, 40.453 ] } },
{ "type": "Feature", "properties": { "place": "定陵", "full_name": "昌平定陵", "lon": 116.22, "lat": 40.292, "2015_1": 31, "2015_2": 14, "2015_3": 6, "2015_4": 29, "2016_1": 17, "2016_2": 9, "2016_3": 7, "2016_4": 30, "2017_1": 22, "2017_2": 4, "2017_3": 5, "2017_4": 9, "2018_1": 14, "2018_2": 11, "2018_3": 0, "2018_4": 9 }, "geometry": { "type": "Point", "coordinates": [ 116.22, 40.292 ] } },
{ "type": "Feature", "properties": { "place": "八达岭", "full_name": "京西北八达岭，京西北区域点", "lon": 115.988, "lat": 40.365, "2015_1": 22, "2015_2": 13, "2015_3": 9, "2015_4": 16, "2016_1": 9, "2016_2": 9, "2016_3": 12, "2016_4": 6, "2017_1": 17, "2017_2": 3, "2017_3": 4, "2017_4": 7, "2018_1": 13, "2018_2": 13, "2018_3": 3, "2018_4": 10 }, "geometry": { "type": "Point", "coordinates": [ 115.988, 40.365 ] } },
{ "type": "Feature", "properties": { "place": "密云水库", "full_name": "京东北密云水库，京东北区域点", "lon": 116.911, "lat": 40.499, "2015_1": 25, "2015_2": 11, "2015_3": 3, "2015_4": 23, "2016_1": 14, "2016_2": 6, "2016_3": 1, "2016_4": 23, "2017_1": 18, "2017_2": 4, "2017_3": 3, "2017_4": 7, "2018_1": 11, "2018_2": 9, "2018_3": 2, "2018_4": 8 }, "geometry": { "type": "Point", "coordinates": [ 116.911, 40.499 ] } },
{ "type": "Feature", "properties": { "place": "东高村", "full_name": "京东东高村，京东区域点", "lon": 117.12, "lat": 40.1, "2015_1": 28, "2015_2": 26, "2015_3": 10, "2015_4": 37, "2016_1": 18, "2016_2": 8, "2016_3": 7, "2016_4": 30, "2017_1": 26, "2017_2": 7, "2017_3": 9, "2017_4": 11, "2018_1": 18, "2018_2": 12, "2018_3": 0, "2018_4": 15 }, "geometry": { "type": "Point", "coordinates": [ 117.12, 40.1 ] } },
{ "type": "Feature", "properties": { "place": "永乐店", "full_name": "京东南永乐店，京东南区域点", "lon": 116.783, "lat": 39.712, "2015_1": 49, "2015_2": 25, "2015_3": 12, "2015_4": 47, "2016_1": 33, "2016_2": 14, "2016_3": 17, "2016_4": 51, "2017_1": 38, "2017_2": 8, "2017_3": 7, "2017_4": 21, "2018_1": 29, "2018_2": 12, "2018_3": 2, "2018_4": 26 }, "geometry": { "type": "Point", "coordinates": [ 116.783, 39.712 ] } },
{ "type": "Feature", "properties": { "place": "榆垡", "full_name": "京南榆垡，京南区域点", "lon": 116.3, "lat": 39.52, "2015_1": 49, "2015_2": 16, "2015_3": 6, "2015_4": 45, "2016_1": 42, "2016_2": 15, "2016_3": 12, "2016_4": 53, "2017_1": 39, "2017_2": 10, "2017_3": 4, "2017_4": 16, "2018_1": 33, "2018_2": 13, "2018_3": 2, "2018_4": 26 }, "geometry": { "type": "Point", "coordinates": [ 116.3, 39.52 ] } },
{ "type": "Feature", "properties": { "place": "琉璃河", "full_name": "京西南琉璃河，京西南区域点", "lon": 116.0, "lat": 39.58, "2015_1": 63, "2015_2": 24, "2015_3": 14, "2015_4": 48, "2016_1": 50, "2016_2": 9, "2016_3": 8, "2016_4": 58, "2017_1": 44, "2017_2": 7, "2017_3": 4, "2017_4": 24, "2018_1": 31, "2018_2": 15, "2018_3": 1, "2018_4": 28 }, "geometry": { "type": "Point", "coordinates": [ 116.0, 39.58 ] } },
{ "type": "Feature", "properties": { "place": "前门", "full_name": "前门东大街，前门交通点", "lon": 116.395, "lat": 39.899, "2015_1": 38, "2015_2": 21, "2015_3": 15, "2015_4": 35, "2016_1": 24, "2016_2": 15, "2016_3": 16, "2016_4": 41, "2017_1": 26, "2017_2": 8, "2017_3": 6, "2017_4": 14, "2018_1": 20, "2018_2": 11, "2018_3": 2, "2018_4": 16 }, "geometry": { "type": "Point", "coordinates": [ 116.395, 39.899 ] } },
{ "type": "Feature", "properties": { "place": "永定门内", "full_name": "永定门内大街，永定门交通点", "lon": 116.394, "lat": 39.876, "2015_1": 40, "2015_2": 19, "2015_3": 13, "2015_4": 42, "2016_1": 27, "2016_2": 12, "2016_3": 17, "2016_4": 42, "2017_1": 28, "2017_2": 8, "2017_3": 8, "2017_4": 16, "2018_1": 21, "2018_2": 11, "2018_3": 3, "2018_4": 18 }, "geometry": { "type": "Point", "coordinates": [ 116.394, 39.876 ] } },
{ "type": "Feature", "properties": { "place": "西直门北", "full_name": "西直门北大街，西直门交通点", "lon": 116.349, "lat": 39.954, "2015_1": 37, "2015_2": 21, "2015_3": 9, "2015_4": 41, "2016_1": 24, "2016_2": 13, "2016_3": 17, "2016_4": 40, "2017_1": 27, "2017_2": 6, "2017_3": 6, "2017_4": 16, "2018_1": 20, "2018_2": 14, "2018_3": 3, "2018_4": 13 }, "geometry": { "type": "Point", "coordinates": [ 116.349, 39.954 ] } },
{ "type": "Feature", "properties": { "place": "南三环", "full_name": "南三环西路，南三环交通点", "lon": 116.368, "lat": 39.856, "2015_1": 41, "2015_2": 26, "2015_3": 15, "2015_4": 43, "2016_1": 28, "2016_2": 20, "2016_3": 18, "2016_4": 43, "2017_1": 30, "2017_2": 11, "2017_3": 2, "2017_4": 16, "2018_1": 21, "2018_2": 11, "2018_3": 0, "2018_4": 17 }, "geometry": { "type": "Point", "coordinates": [ 116.368, 39.856 ] } },
{ "type": "Feature", "properties": { "place": "东四环", "full_name": "东四环北路，东四环交通点", "lon": 116.483, "lat": 39.939, "2015_1": 45, "2015_2": 20, "2015_3": 11, "2015_4": 42, "2016_1": 25, "2016_2": 16, "2016_3": 13, "2016_4": 44, "2017_1": 28, "2017_2": 7, "2017_3": 7, "2017_4": 15, "2018_1": 19, "2018_2": 12, "2018_3": 0, "2018_4": 16 }, "geometry": { "type": "Point", "coordinates": [ 116.483, 39.939 ] } }
]
}
